[
    {
        "id": 1,
        "name": "Masjid-e-Khadria",
        "lat": 12.9982,
        "lng": 77.5925,
        "shifts": [
            {
                "time": "12:30 PM",
                "lang": "Urdu"
            },
            {
                "time": "1:30 PM",
                "lang": "Urdu"
            }
        ],
        "facilities": {
            "ladies": true,
            "parking": true,
            "outsidersAllowed": true
        }
    },
    {
        "id": 2,
        "name": "Masjid Al-Noor",
        "lat": 12.9352,
        "lng": 77.6245,
        "shifts": [
            {
                "time": "1:15 PM",
                "lang": "English"
            }
        ],
        "facilities": {
            "ladies": false,
            "parking": false,
            "outsidersAllowed": true
        }
    },
    {
        "id": 3,
        "name": "Masjid-e-Bilal",
        "lat": 13.0358,
        "lng": 77.5970,
        "shifts": [
            {
                "time": "1:00 PM",
                "lang": "Urdu"
            },
            {
                "time": "1:45 PM",
                "lang": "English"
            }
        ],
        "facilities": {
            "ladies": true,
            "parking": false,
            "outsidersAllowed": true
        }
    },
    {
        "id": 4,
        "name": "Jama Masjid",
        "lat": 12.9596,
        "lng": 77.5771,
        "shifts": [
            {
                "time": "12:45 PM",
                "lang": "Urdu"
            },
            {
                "time": "1:30 PM",
                "lang": "Urdu"
            },
            {
                "time": "2:00 PM",
                "lang": "English"
            }
        ],
        "facilities": {
            "ladies": true,
            "parking": true,
            "outsidersAllowed": true
        }
    },
    {
        "id": 5,
        "name": "Masjid Al-Rahma",
        "lat": 12.9122,
        "lng": 77.6440,
        "shifts": [
            {
                "time": "1:20 PM",
                "lang": "English"
            }
        ],
        "facilities": {
            "ladies": false,
            "parking": true,
            "outsidersAllowed": false
        }
    }
]